{"type":"FeatureCollection","bbox":[144.970714999976,-37.8701109994422,144.991300000284,-37.8550349993299],"crs":{"type":"name","properties":{"name":"EPSG:4283"}},"features":[{"type":"Feature","geometry":{"type":"Point","coordinates":[144.97999199985003,-37.8559179992083]},"properties":{"sportsplayed":"Australian Rules Football","numberfieldcourts":1,"postcode":3206,"facility_id":"PORTPH12160","objectid":7201,"suburbtown":"ALBERT PARK","streetname":"Lakeside"},"id":"vic_sport_and_recreation_2015.fid-13603162_1806ff39c98_729a"},{"type":"Feature","geometry":{"type":"Point","coordinates":[144.978460999532,-37.8701109994422]},"properties":{"sportsplayed":"Australian Rules Football","numberfieldcourts":1,"postcode":3182,"facility_id":"PORTPH12175","objectid":7203,"suburbtown":"ST KILDA","streetname":"Spenser"},"id":"vic_sport_and_recreation_2015.fid-13603162_1806ff39c98_729b"},{"type":"Feature","geometry":{"type":"Point","coordinates":[144.989121999914,-37.8652179992045]},"properties":{"sportsplayed":"Basketball","numberfieldcourts":1,"postcode":3182,"facility_id":"PORTPH12173","objectid":7210,"suburbtown":"ST KILDA","streetname":"Inkerman"},"id":"vic_sport_and_recreation_2015.fid-13603162_1806ff39c98_729c"},{"type":"Feature","geometry":{"type":"Point","coordinates":[144.989121999914,-37.8652179992045]},"properties":{"sportsplayed":"Boxing","numberfieldcourts":1,"postcode":3182,"facility_id":"PORTPH12173","objectid":7211,"suburbtown":"ST KILDA","streetname":"Inkerman"},"id":"vic_sport_and_recreation_2015.fid-13603162_1806ff39c98_729d"},{"type":"Feature","geometry":{"type":"Point","coordinates":[144.97999199985003,-37.8559179992083]},"properties":{"sportsplayed":"Cricket","numberfieldcourts":1,"postcode":3206,"facility_id":"PORTPH12160","objectid":7219,"suburbtown":"ALBERT PARK","streetname":"Lakeside"},"id":"vic_sport_and_recreation_2015.fid-13603162_1806ff39c98_729e"},{"type":"Feature","geometry":{"type":"Point","coordinates":[144.978460999532,-37.8701109994422]},"properties":{"sportsplayed":"Cricket","numberfieldcourts":1,"postcode":3182,"facility_id":"PORTPH12175","objectid":7222,"suburbtown":"ST KILDA","streetname":"Spenser"},"id":"vic_sport_and_recreation_2015.fid-13603162_1806ff39c98_729f"},{"type":"Feature","geometry":{"type":"Point","coordinates":[144.989121999914,-37.8652179992045]},"properties":{"sportsplayed":"Fitness \/ Gymnasium Workouts","numberfieldcourts":1,"postcode":3182,"facility_id":"PORTPH12173","objectid":7225,"suburbtown":"ST KILDA","streetname":"Inkerman"},"id":"vic_sport_and_recreation_2015.fid-13603162_1806ff39c98_72a0"},{"type":"Feature","geometry":{"type":"Point","coordinates":[144.978349000298,-37.85876199922009]},"properties":{"sportsplayed":"Lawn Bowls","numberfieldcourts":1,"postcode":3182,"facility_id":"PORTPH12174","objectid":7237,"suburbtown":"ST KILDA","streetname":"Fitzroy"},"id":"vic_sport_and_recreation_2015.fid-13603162_1806ff39c98_72a1"},{"type":"Feature","geometry":{"type":"Point","coordinates":[144.978460999532,-37.8701109994422]},"properties":{"sportsplayed":"Netball","numberfieldcourts":2,"postcode":3182,"facility_id":"PORTPH12175","objectid":7238,"suburbtown":"ST KILDA","streetname":"Spenser"},"id":"vic_sport_and_recreation_2015.fid-13603162_1806ff39c98_72a2"},{"type":"Feature","geometry":{"type":"Point","coordinates":[144.970714999976,-37.863898999153]},"properties":{"sportsplayed":"Sailing","numberfieldcourts":null,"postcode":3182,"facility_id":"PORTPH11277","objectid":7244,"suburbtown":"STKILDA","streetname":"Pier"},"id":"vic_sport_and_recreation_2015.fid-13603162_1806ff39c98_72a3"},{"type":"Feature","geometry":{"type":"Point","coordinates":[144.974561000354,-37.8679199986841]},"properties":{"sportsplayed":"Surf Life Saving","numberfieldcourts":null,"postcode":3182,"facility_id":"PORTPH11250","objectid":7258,"suburbtown":"ST KILDA","streetname":"Jacka"},"id":"vic_sport_and_recreation_2015.fid-13603162_1806ff39c98_72a4"},{"type":"Feature","geometry":{"type":"Point","coordinates":[144.97999199985003,-37.8559179992083]},"properties":{"sportsplayed":"Tennis (Outdoor)","numberfieldcourts":6,"postcode":3206,"facility_id":"PORTPH12160","objectid":7268,"suburbtown":"ALBERT PARK","streetname":"Lakeside"},"id":"vic_sport_and_recreation_2015.fid-13603162_1806ff39c98_72a5"},{"type":"Feature","geometry":{"type":"Point","coordinates":[144.991300000284,-37.8550349993299]},"properties":{"sportsplayed":"Lawn Bowls","numberfieldcourts":3,"postcode":3181,"facility_id":"STONNI11967","objectid":7793,"suburbtown":"WINDSOR","streetname":"Union"},"id":"vic_sport_and_recreation_2015.fid-13603162_1806ff39c98_72a6"}]}